{
	"center": {
		"lat": 55.755864,
		"lng": 37.617698
	},
	"places": [
		{
			"location": {
				"lat": 55.65,
				"lng": 37.59
			},
			"name": "Пятерочка",
			"category": "DISCOUNTS",
			"description": "композиционная форма, которую используют в литературоведении и лингвистике для подробной характеристики предметов или явлений.Обобщенно, объекты описания представляют собой Комплексный предмет/явление образует в сознании субъекта абстрактный смысловой тип, используемый им в дальнейшем для описания. Для этой композиционной формы, в числе прочего, характерно изображение пространственных отношений, в котором также отображается пространственное соотношение элементов предмета. Это придает описанию визуальную наглядность, реализуемую применением языковых средств для описания пространстваОписание всегда следует за временем наблюдения объекта, в общей цепи состоящей из акта восприятия, воспоминания, представления, осмысления и формулировки в доступных языковых терминах. Т.о. описание - это продукт мыслительной переработки целостного образа сцены/ситуации, субъективная знаковая интерпретация фрагмента действительности."
		},
		{
			"location": {
				"lat": 55.81,
				"lng": 37.63
			},
			"name": "Авоська",
			"category": "DISCOUNTS"
		},
		{
			"location": {
				"lat": 55.73,
				"lng": 37.67
			},
			"name": "Красное и белое",
			"category": "CARDS"
		},
		{
			"location": {
				"lat": 55.75,
				"lng": 37.62
			},
			"name": "Парк Зарядье",
			"category": "PLACES"
		},
		{
			"location": {
				"lat": 55.83,
				"lng": 37.62
			},
			"name": "ВДНХ",
			"category": "PLACES"
		},
		{
			"location": {
				"lat": 55.71,
				"lng": 37.56
			},
			"name": "Олимпийский комплекс Лужники",
			"category": "PLACES"
		},
		{
			"location": {
				"lat": 55.72,
				"lng": 37.68
			},
			"name": "Кафе у Иваныча",
			"category": "PLACES"
		}
	]
}
